{
"type": "FeatureCollection",
"name": "cafe",
"crs": { "type": "name", "properties": { "name": "urn:ogc:def:crs:OGC:1.3:CRS84" } },
"features": [
{ "type": "Feature", "properties": { "yand_adr": "Россия, Санкт-Петербург, Биржевой переулок, 2", "name": "Эдда", "type": "кафе", "id": "node\/3168670772", "amenity": "cafe", "x": 59.945017, "y": 30.293563 }, "geometry": { "type": "Point", "coordinates": [ 30.293563, 59.945017 ] } },
{ "type": "Feature", "properties": { "yand_adr": "Россия, Санкт-Петербург, 6-я линия Васильевского острова, 13", "name": "Ферма", "type": "кафе", "id": "node\/6355459185", "amenity": "cafe", "x": 59.940343, "y": 30.282262 }, "geometry": { "type": "Point", "coordinates": [ 30.282262, 59.940343 ] } },
{ "type": "Feature", "properties": { "yand_adr": "Россия, Санкт-Петербург, 1-я линия Васильевского острова, 32", "name": "Столовая", "type": "столовая", "id": "node\/5235334623", "amenity": "cafe", "x": 59.943422, "y": 30.287877 }, "geometry": { "type": "Point", "coordinates": [ 30.287877, 59.943422 ] } },
{ "type": "Feature", "properties": { "yand_adr": "Россия, Санкт-Петербург, 8-я линия Васильевского острова, 15", "name": "Рамен Шифу", "type": "кафе", "id": "node\/963944161", "amenity": "cafe", "x": 59.937607, "y": 30.28202 }, "geometry": { "type": "Point", "coordinates": [ 30.28202, 59.937607 ] } },
{ "type": "Feature", "properties": { "yand_adr": "Россия, Санкт-Петербург, улица Кораблестроителей, 30", "name": "Небесный ФУД Город", "type": "кафе", "id": "node\/825152812", "amenity": "cafe", "x": 59.952493, "y": 30.212346 }, "geometry": { "type": "Point", "coordinates": [ 30.212346, 59.952493 ] } },
{ "type": "Feature", "properties": { "yand_adr": "Россия, Санкт-Петербург, 13-я линия Васильевского острова, 38", "name": "Торты", "type": "кафе", "id": "node\/2030767861", "amenity": "cafe", "x": 59.940551, "y": 30.271033 }, "geometry": { "type": "Point", "coordinates": [ 30.271033, 59.940551 ] } },
{ "type": "Feature", "properties": { "yand_adr": "Россия, Санкт-Петербург, 18-я линия Васильевского острова, 49", "name": "Koffein", "type": "кафе", "id": "node\/6449397986", "amenity": "cafe", "x": 59.941236, "y": 30.260864 }, "geometry": { "type": "Point", "coordinates": [ 30.260864, 59.941236 ] } },
{ "type": "Feature", "properties": { "yand_adr": "Россия, Санкт-Петербург, Средний проспект Васильевского острова, 45", "name": "Шоколадница", "type": "кафе", "id": "node\/4771096591", "amenity": "cafe", "x": 59.941939, "y": 30.273863 }, "geometry": { "type": "Point", "coordinates": [ 30.273863, 59.941939 ] } },
{ "type": "Feature", "properties": { "yand_adr": "Россия, Санкт-Петербург, Средний проспект Васильевского острова, 46", "name": "Чеховъ", "type": "кафе", "id": "node\/6438959187", "amenity": "cafe", "x": 59.941231, "y": 30.272902 }, "geometry": { "type": "Point", "coordinates": [ 30.272902, 59.941231 ] } },
{ "type": "Feature", "properties": { "yand_adr": "Россия, Санкт-Петербург, Большой проспект Васильевского острова, 6", "name": "Музей специй", "type": "кафе", "id": "node\/5863512495", "amenity": "cafe", "x": 59.940492, "y": 30.289233 }, "geometry": { "type": "Point", "coordinates": [ 30.289233, 59.940492 ] } },
{ "type": "Feature", "properties": { "yand_adr": "Россия, Санкт-Петербург, Средний проспект Васильевского острова, 6\/13", "name": "Брынза", "type": "кафе", "id": "node\/5888448657", "amenity": "cafe", "x": 59.945666, "y": 30.288029 }, "geometry": { "type": "Point", "coordinates": [ 30.288029, 59.945666 ] } },
{ "type": "Feature", "properties": { "yand_adr": "Россия, Санкт-Петербург, Большой проспект Васильевского острова, 26", "name": "Georgia Small", "type": "кафе", "id": "node\/963944132", "amenity": "cafe", "x": 59.938243, "y": 30.281499 }, "geometry": { "type": "Point", "coordinates": [ 30.281499, 59.938243 ] } },
{ "type": "Feature", "properties": { "yand_adr": "Россия, Санкт-Петербург, Большой проспект Васильевского острова, 8\/4", "name": "Вази", "type": "кафе", "id": "node\/4271717090", "amenity": "cafe", "x": 59.94006, "y": 30.28767 }, "geometry": { "type": "Point", "coordinates": [ 30.28767, 59.94006 ] } },
{ "type": "Feature", "properties": { "yand_adr": "Россия, Санкт-Петербург, Бугский переулок, 6", "name": "Канарейка", "type": "кафе", "id": "node\/4273693591", "amenity": "cafe", "x": 59.937738, "y": 30.285748 }, "geometry": { "type": "Point", "coordinates": [ 30.285748, 59.937738 ] } },
{ "type": "Feature", "properties": { "yand_adr": "Россия, Санкт-Петербург, Малый проспект Васильевского острова, 75", "name": "Georgia", "type": "кафе", "id": "node\/2565138003", "amenity": "cafe", "x": 59.937932, "y": 30.235702 }, "geometry": { "type": "Point", "coordinates": [ 30.235702, 59.937932 ] } },
{ "type": "Feature", "properties": { "yand_adr": "Россия, Санкт-Петербург, набережная реки Смоленки, 29В", "name": "Нканак", "type": "кафе", "id": "node\/3362307028", "amenity": "cafe", "x": 59.948113, "y": 30.252986 }, "geometry": { "type": "Point", "coordinates": [ 30.252986, 59.948113 ] } },
{ "type": "Feature", "properties": { "yand_adr": "Россия, Санкт-Петербург, Университетская набережная, 5", "name": "Гранд-кафе Нева", "type": "кафе", "id": "node\/4131183889", "amenity": "cafe", "x": 59.940862, "y": 30.302932 }, "geometry": { "type": "Point", "coordinates": [ 30.302932, 59.940862 ] } },
{ "type": "Feature", "properties": { "yand_adr": "Россия, Санкт-Петербург, Кожевенная линия, 40Д", "name": "Easy Hummus", "type": "кафе", "id": "node\/6367683393", "amenity": "cafe", "x": 59.924934, "y": 30.240715 }, "geometry": { "type": "Point", "coordinates": [ 30.240715, 59.924934 ] } },
{ "type": "Feature", "properties": { "yand_adr": "Россия, Санкт-Петербург, Морская набережная, 39к4", "name": "У дома", "type": "кафе", "id": "node\/6696423123", "amenity": "cafe", "x": 59.959854, "y": 30.228255 }, "geometry": { "type": "Point", "coordinates": [ 30.228255, 59.959854 ] } },
{ "type": "Feature", "properties": { "yand_adr": "Россия, Санкт-Петербург, 6-я линия Васильевского острова, 19", "name": "Чебуречная", "type": "кафе", "id": "node\/977892460", "amenity": "cafe", "x": 59.941294, "y": 30.281139 }, "geometry": { "type": "Point", "coordinates": [ 30.281139, 59.941294 ] } },
{ "type": "Feature", "properties": { "yand_adr": "Россия, Санкт-Петербург, Кадетская линия, 29", "name": "Caf? Omo", "type": "кафе", "id": "node\/5540927824", "amenity": "cafe", "x": 59.946734, "y": 30.284993 }, "geometry": { "type": "Point", "coordinates": [ 30.284993, 59.946734 ] } },
{ "type": "Feature", "properties": { "yand_adr": "Россия, Санкт-Петербург, 11-я линия Васильевского острова, 18В", "name": "Жемчужина Востока", "type": "кафе", "id": "node\/4319515789", "amenity": "cafe", "x": 59.938392, "y": 30.27521 }, "geometry": { "type": "Point", "coordinates": [ 30.27521, 59.938392 ] } },
{ "type": "Feature", "properties": { "yand_adr": "Россия, Санкт-Петербург, Малый проспект Васильевского острова, 49", "name": "Столовая", "type": "столовая", "id": "node\/5204369921", "amenity": "cafe", "x": 59.94362, "y": 30.261942 }, "geometry": { "type": "Point", "coordinates": [ 30.261942, 59.94362 ] } },
{ "type": "Feature", "properties": { "yand_adr": "Россия, Санкт-Петербург, Малый проспект Васильевского острова, 29", "name": "Золотой гвоздь", "type": "кафе", "id": "node\/4147236308", "amenity": "cafe", "x": 59.945864, "y": 30.26974 }, "geometry": { "type": "Point", "coordinates": [ 30.26974, 59.945864 ] } },
{ "type": "Feature", "properties": { "yand_adr": "Россия, Санкт-Петербург, набережная реки Смоленки, 14", "name": "Вкусный Обед", "type": "столовая", "id": "node\/4195940101", "amenity": "cafe", "x": 59.947991, "y": 30.268051 }, "geometry": { "type": "Point", "coordinates": [ 30.268051, 59.947991 ] } },
{ "type": "Feature", "properties": { "yand_adr": "Россия, Санкт-Петербург, 8-я линия Васильевского острова, 7", "name": "Петербург", "type": "кафе", "id": "node\/963944159", "amenity": "cafe", "x": 59.936945, "y": 30.282783 }, "geometry": { "type": "Point", "coordinates": [ 30.282783, 59.936945 ] } },
{ "type": "Feature", "properties": { "yand_adr": "Россия, Санкт-Петербург, Средний проспект Васильевского острова, 56", "name": "Столовая Canteen", "type": "столовая", "id": "node\/5358211221", "amenity": "restaurant", "x": 59.940172, "y": 30.269228 }, "geometry": { "type": "Point", "coordinates": [ 30.269228, 59.940172 ] } },
{ "type": "Feature", "properties": { "yand_adr": "Россия, Санкт-Петербург, Уральская улица, 4", "name": "уральский мост", "type": "кафе", "id": "node\/5676120622", "amenity": "cafe", "x": 59.950335, "y": 30.266048 }, "geometry": { "type": "Point", "coordinates": [ 30.266048, 59.950335 ] } },
{ "type": "Feature", "properties": { "yand_adr": "Россия, Санкт-Петербург, 6-я линия Васильевского острова, 27", "name": "Троицкий мост", "type": "кафе", "id": "node\/979036862", "amenity": "cafe", "x": 59.942376, "y": 30.279927 }, "geometry": { "type": "Point", "coordinates": [ 30.279927, 59.942376 ] } },
{ "type": "Feature", "properties": { "yand_adr": "Россия, Санкт-Петербург, Кожевенная линия, 40Д", "name": "Totoro", "type": "кафе", "id": "node\/6367683391", "amenity": "cafe", "x": 59.924934, "y": 30.240715 }, "geometry": { "type": "Point", "coordinates": [ 30.240715, 59.924934 ] } },
{ "type": "Feature", "properties": { "yand_adr": "Россия, Санкт-Петербург, 1-я линия Васильевского острова, 42", "name": "Завтрак", "type": "кафе", "id": "node\/5235335244", "amenity": "cafe", "x": 59.94472, "y": 30.28634 }, "geometry": { "type": "Point", "coordinates": [ 30.28634, 59.94472 ] } },
{ "type": "Feature", "properties": { "yand_adr": "Россия, Санкт-Петербург, 1-я линия Васильевского острова, 44", "name": "Штрогель & пироги", "type": "кафе", "id": "node\/4350036495", "amenity": "cafe", "x": 59.944896, "y": 30.286161 }, "geometry": { "type": "Point", "coordinates": [ 30.286161, 59.944896 ] } },
{ "type": "Feature", "properties": { "yand_adr": "Россия, Санкт-Петербург, 1-я линия Васильевского острова, 50", "name": "Штолле", "type": "кафе", "id": "node\/1065124774", "amenity": "cafe", "x": 59.946004, "y": 30.284957 }, "geometry": { "type": "Point", "coordinates": [ 30.284957, 59.946004 ] } },
{ "type": "Feature", "properties": { "yand_adr": "Россия, Санкт-Петербург, 12-я линия Васильевского острова, 13", "name": "Сакартвело", "type": "кафе", "id": "node\/6696631187", "amenity": "cafe", "x": 59.938482, "y": 30.274267 }, "geometry": { "type": "Point", "coordinates": [ 30.274267, 59.938482 ] } },
{ "type": "Feature", "properties": { "yand_adr": "Россия, Санкт-Петербург, 14-я линия Васильевского острова, 41", "name": "Кувшин", "type": "кафе", "id": "node\/3865497682", "amenity": "cafe", "x": 59.940037, "y": 30.269093 }, "geometry": { "type": "Point", "coordinates": [ 30.269093, 59.940037 ] } },
{ "type": "Feature", "properties": { "yand_adr": "Россия, Санкт-Петербург, 14-я линия Васильевского острова, 9", "name": "МИ8", "type": "кафе", "id": "node\/2977937005", "amenity": "cafe", "x": 59.935507, "y": 30.274276 }, "geometry": { "type": "Point", "coordinates": [ 30.274276, 59.935507 ] } },
{ "type": "Feature", "properties": { "yand_adr": "Россия, Санкт-Петербург, 15-я линия Васильевского острова, 2\/27", "name": "У подворья", "type": "кафе", "id": "node\/3167392785", "amenity": "cafe", "x": 59.933266, "y": 30.275237 }, "geometry": { "type": "Point", "coordinates": [ 30.275237, 59.933266 ] } },
{ "type": "Feature", "properties": { "yand_adr": "Россия, Санкт-Петербург, 19-я линия Васильевского острова, 2", "name": "Siberika", "type": "кафе", "id": "node\/3167392643", "amenity": "cafe", "x": 59.931418, "y": 30.271401 }, "geometry": { "type": "Point", "coordinates": [ 30.271401, 59.931418 ] } },
{ "type": "Feature", "properties": { "yand_adr": "Россия, Санкт-Петербург, 22-я линия Васильевского острова, 3к1", "name": "Диета", "type": "кафе", "id": "node\/4418753696", "amenity": "cafe", "x": 59.931513, "y": 30.265455 }, "geometry": { "type": "Point", "coordinates": [ 30.265455, 59.931513 ] } },
{ "type": "Feature", "properties": { "yand_adr": "Россия, Санкт-Петербург, 27-я линия Васильевского острова", "name": "У биржи", "type": "кафе", "id": "way\/65623754", "amenity": "cafe", "x": 59.928956, "y": 30.259616 }, "geometry": { "type": "Point", "coordinates": [ 30.259616, 59.928956 ] } },
{ "type": "Feature", "properties": { "yand_adr": "Россия, Санкт-Петербург, 3-я линия Васильевского острова, 26", "name": "Деметра", "type": "кафе", "id": "node\/2591842302", "amenity": "cafe", "x": 59.943422, "y": 30.28449 }, "geometry": { "type": "Point", "coordinates": [ 30.28449, 59.943422 ] } },
{ "type": "Feature", "properties": { "yand_adr": "Россия, Санкт-Петербург, 3-я линия Васильевского острова, 8", "name": "Другие Миры", "type": "кафе", "id": "node\/4205091689", "amenity": "cafe", "x": 59.941547, "y": 30.286682 }, "geometry": { "type": "Point", "coordinates": [ 30.286682, 59.941547 ] } },
{ "type": "Feature", "properties": { "yand_adr": "Россия, Санкт-Петербург, 4-я линия Васильевского острова, 5", "name": "Старый Тбилиси", "type": "кафе", "id": "node\/2591842307", "amenity": "cafe", "x": 59.940627, "y": 30.285307 }, "geometry": { "type": "Point", "coordinates": [ 30.285307, 59.940627 ] } },
{ "type": "Feature", "properties": { "yand_adr": "Россия, Санкт-Петербург, 5-я линия Васильевского острова, 42", "name": "Ротонда", "type": "кафе", "id": "node\/2591842305", "amenity": "cafe", "x": 59.943368, "y": 30.281229 }, "geometry": { "type": "Point", "coordinates": [ 30.281229, 59.943368 ] } },
{ "type": "Feature", "properties": { "yand_adr": "Россия, Санкт-Петербург, 6-я линия Васильевского острова, 21", "name": "Чайникофф", "type": "кафе", "id": "node\/977892391", "amenity": "cafe", "x": 59.941515, "y": 30.280897 }, "geometry": { "type": "Point", "coordinates": [ 30.280897, 59.941515 ] } },
{ "type": "Feature", "properties": { "yand_adr": "Россия, Санкт-Петербург, 6-я линия Васильевского острова, 21", "name": "Complimenti", "type": "кафе", "id": "node\/977892506", "amenity": "cafe", "x": 59.941515, "y": 30.280897 }, "geometry": { "type": "Point", "coordinates": [ 30.280897, 59.941515 ] } },
{ "type": "Feature", "properties": { "yand_adr": "Россия, Санкт-Петербург, 6-я линия Васильевского острова, 25", "name": "Квартирка", "type": "кафе", "id": "node\/797895650", "amenity": "cafe", "x": 59.942043, "y": 30.280268 }, "geometry": { "type": "Point", "coordinates": [ 30.280268, 59.942043 ] } },
{ "type": "Feature", "properties": { "yand_adr": "Россия, Санкт-Петербург, 6-я линия Васильевского острова, 27", "name": "Лидо", "type": "кафе", "id": "node\/979036955", "amenity": "cafe", "x": 59.942376, "y": 30.279927 }, "geometry": { "type": "Point", "coordinates": [ 30.279927, 59.942376 ] } },
{ "type": "Feature", "properties": { "yand_adr": "Россия, Санкт-Петербург, 6-я линия Васильевского острова, 29", "name": "Белочка", "type": "кафе", "id": "node\/979036938", "amenity": "cafe", "x": 59.942845, "y": 30.279388 }, "geometry": { "type": "Point", "coordinates": [ 30.279388, 59.942845 ] } },
{ "type": "Feature", "properties": { "yand_adr": "Россия, Санкт-Петербург, 6-я линия Васильевского острова, 59Бк1", "name": "Наше", "type": "кафе", "id": "node\/2841604561", "amenity": "cafe", "x": 59.948559, "y": 30.272749 }, "geometry": { "type": "Point", "coordinates": [ 30.272749, 59.948559 ] } },
{ "type": "Feature", "properties": { "yand_adr": "Россия, Санкт-Петербург, 7-я линия Васильевского острова, 24", "name": "Ал Сумах", "type": "кафе", "id": "node\/951472057", "amenity": "cafe", "x": 59.939658, "y": 30.282172 }, "geometry": { "type": "Point", "coordinates": [ 30.282172, 59.939658 ] } },
{ "type": "Feature", "properties": { "yand_adr": "Россия, Санкт-Петербург, 7-я линия Васильевского острова, 30", "name": "Укроп", "type": "кафе", "id": "node\/5053714642", "amenity": "cafe", "x": 59.94051, "y": 30.281112 }, "geometry": { "type": "Point", "coordinates": [ 30.281112, 59.94051 ] } },
{ "type": "Feature", "properties": { "yand_adr": "Россия, Санкт-Петербург, 8-я линия Васильевского острова, 25", "name": "Joly Woo", "type": "кафе", "id": "node\/7261435572", "amenity": "cafe", "x": 59.939694, "y": 30.28016 }, "geometry": { "type": "Point", "coordinates": [ 30.28016, 59.939694 ] } },
{ "type": "Feature", "properties": { "yand_adr": "Россия, Санкт-Петербург, 8-я линия Васильевского острова, 55", "name": "Дамаск", "type": "кафе", "id": "node\/4281112404", "amenity": "cafe", "x": 59.943755, "y": 30.274905 }, "geometry": { "type": "Point", "coordinates": [ 30.274905, 59.943755 ] } },
{ "type": "Feature", "properties": { "yand_adr": "Россия, Санкт-Петербург, 9-я линия Васильевского острова, 16", "name": "Учкудук", "type": "кафе", "id": "node\/952381330", "amenity": "cafe", "x": 59.939208, "y": 30.279163 }, "geometry": { "type": "Point", "coordinates": [ 30.279163, 59.939208 ] } },
{ "type": "Feature", "properties": { "yand_adr": "Россия, Санкт-Петербург, 9-я линия Васильевского острова, 34", "name": "But first coffee", "type": "кафе", "id": "node\/952381400", "amenity": "cafe", "x": 59.941087, "y": 30.277097 }, "geometry": { "type": "Point", "coordinates": [ 30.277097, 59.941087 ] } },
{ "type": "Feature", "properties": { "yand_adr": "Россия, Санкт-Петербург, 9-я линия Васильевского острова, 54", "name": "Family Friends", "type": "кафе", "id": "node\/7227778613", "amenity": "cafe", "x": 59.944846, "y": 30.272695 }, "geometry": { "type": "Point", "coordinates": [ 30.272695, 59.944846 ] } },
{ "type": "Feature", "properties": { "yand_adr": "Россия, Санкт-Петербург, 9-я линия Васильевского острова, 72", "name": "Sparrow Coffee", "type": "кафе", "id": "node\/7227720041", "amenity": "cafe", "x": 59.947297, "y": 30.269874 }, "geometry": { "type": "Point", "coordinates": [ 30.269874, 59.947297 ] } },
{ "type": "Feature", "properties": { "yand_adr": "Россия, Санкт-Петербург, Большой проспект Васильевского острова, 47", "name": "Республика кофе", "type": "кафе", "id": "node\/3171912461", "amenity": "cafe", "x": 59.937116, "y": 30.274016 }, "geometry": { "type": "Point", "coordinates": [ 30.274016, 59.937116 ] } },
{ "type": "Feature", "properties": { "yand_adr": "Россия, Санкт-Петербург, Большой проспект Васильевского острова, 62", "name": "Европа", "type": "кафе", "id": "node\/6514119187", "amenity": "cafe", "x": 59.933307, "y": 30.264574 }, "geometry": { "type": "Point", "coordinates": [ 30.264574, 59.933307 ] } },
{ "type": "Feature", "properties": { "yand_adr": "Россия, Санкт-Петербург, Большой проспект Васильевского острова, 62", "name": "Зачет", "type": "кафе", "id": "node\/7004223057", "amenity": "cafe", "x": 59.933307, "y": 30.264574 }, "geometry": { "type": "Point", "coordinates": [ 30.264574, 59.933307 ] } },
{ "type": "Feature", "properties": { "yand_adr": "Россия, Санкт-Петербург, Большой проспект Васильевского острова, 72", "name": "Мельник", "type": "кафе", "id": "node\/910328077", "amenity": "cafe", "x": 59.931621, "y": 30.25816 }, "geometry": { "type": "Point", "coordinates": [ 30.25816, 59.931621 ] } },
{ "type": "Feature", "properties": { "yand_adr": "Россия, Санкт-Петербург, Большой проспект Васильевского острова, 8\/4", "name": "Кафе 8\/4", "type": "кафе", "id": "node\/5935325785", "amenity": "cafe", "x": 59.94006, "y": 30.28767 }, "geometry": { "type": "Point", "coordinates": [ 30.28767, 59.94006 ] } },
{ "type": "Feature", "properties": { "yand_adr": "Россия, Санкт-Петербург, Большой проспект Васильевского острова, 82", "name": "Долина", "type": "кафе", "id": "node\/801260895", "amenity": "cafe", "x": 59.929948, "y": 30.252474 }, "geometry": { "type": "Point", "coordinates": [ 30.252474, 59.929948 ] } },
{ "type": "Feature", "properties": { "yand_adr": "Россия, Санкт-Петербург, Большой проспект Васильевского острова, 83", "name": "Алекс", "type": "кафе", "id": "node\/800277068", "amenity": "cafe", "x": 59.933577, "y": 30.254001 }, "geometry": { "type": "Point", "coordinates": [ 30.254001, 59.933577 ] } },
{ "type": "Feature", "properties": { "yand_adr": "Россия, Санкт-Петербург, Большой проспект Васильевского острова, 83", "name": "Старый двор", "type": "кафе", "id": "node\/800276877", "amenity": "cafe", "x": 59.933577, "y": 30.254001 }, "geometry": { "type": "Point", "coordinates": [ 30.254001, 59.933577 ] } },
{ "type": "Feature", "properties": { "yand_adr": "Россия, Санкт-Петербург, Большой проспект Васильевского острова, 90", "name": "Лугела", "type": "кафе", "id": "node\/7296816885", "amenity": "cafe", "x": 59.929136, "y": 30.24951 }, "geometry": { "type": "Point", "coordinates": [ 30.24951, 59.929136 ] } },
{ "type": "Feature", "properties": { "yand_adr": "Россия, Санкт-Петербург, Волжский переулок", "name": "Армянский домик", "type": "кафе", "id": "node\/966256385", "amenity": "cafe", "x": 59.939257, "y": 30.284759 }, "geometry": { "type": "Point", "coordinates": [ 30.284759, 59.939257 ] } },
{ "type": "Feature", "properties": { "yand_adr": "Россия, Санкт-Петербург, Волховский переулок, 4", "name": "Чебуреки у Ларисы", "type": "кафе", "id": "node\/7157144895", "amenity": "cafe", "x": 59.944972, "y": 30.290742 }, "geometry": { "type": "Point", "coordinates": [ 30.290742, 59.944972 ] } },
{ "type": "Feature", "properties": { "yand_adr": "Россия, Санкт-Петербург, Гаванская улица, 12к2", "name": "Диана", "type": "кафе", "id": "node\/791716863", "amenity": "cafe", "x": 59.930764, "y": 30.240284 }, "geometry": { "type": "Point", "coordinates": [ 30.240284, 59.930764 ] } },
{ "type": "Feature", "properties": { "yand_adr": "Россия, Санкт-Петербург, Гаванская улица, 17", "name": "Кабанчик", "type": "кафе", "id": "node\/791716868", "amenity": "cafe", "x": 59.930791, "y": 30.241101 }, "geometry": { "type": "Point", "coordinates": [ 30.241101, 59.930791 ] } },
{ "type": "Feature", "properties": { "yand_adr": "Россия, Санкт-Петербург, Гаванская улица, 35", "name": "Мука", "type": "кафе", "id": "node\/5214303621", "amenity": "cafe", "x": 59.934691, "y": 30.23908 }, "geometry": { "type": "Point", "coordinates": [ 30.23908, 59.934691 ] } },
{ "type": "Feature", "properties": { "yand_adr": "Россия, Санкт-Петербург, Железноводская улица, 68", "name": "Дубай", "type": "кафе", "id": "node\/2180271935", "amenity": "cafe", "x": 59.949177, "y": 30.234364 }, "geometry": { "type": "Point", "coordinates": [ 30.234364, 59.949177 ] } },
{ "type": "Feature", "properties": { "yand_adr": "Россия, Санкт-Петербург, Кадетская линия, 11", "name": "Хачапурная Хинкальная", "type": "кафе", "id": "node\/5231000422", "amenity": "cafe", "x": 59.943963, "y": 30.28811 }, "geometry": { "type": "Point", "coordinates": [ 30.28811, 59.943963 ] } },
{ "type": "Feature", "properties": { "yand_adr": "Россия, Санкт-Петербург, Кадетская линия, 29", "name": "Хачапури и вино", "type": "кафе", "id": "node\/5193722523", "amenity": "cafe", "x": 59.946734, "y": 30.284993 }, "geometry": { "type": "Point", "coordinates": [ 30.284993, 59.946734 ] } },
{ "type": "Feature", "properties": { "yand_adr": "Россия, Санкт-Петербург, Кожевенная линия, 40", "name": "Gr?n", "type": "кафе", "id": "node\/6367683105", "amenity": "cafe", "x": 59.924397, "y": 30.242036 }, "geometry": { "type": "Point", "coordinates": [ 30.242036, 59.924397 ] } },
{ "type": "Feature", "properties": { "yand_adr": "Россия, Санкт-Петербург, Кожевенная линия, 40Д", "name": "Плов Ванлов", "type": "кафе", "id": "node\/6367683392", "amenity": "cafe", "x": 59.924934, "y": 30.240715 }, "geometry": { "type": "Point", "coordinates": [ 30.240715, 59.924934 ] } },
{ "type": "Feature", "properties": { "yand_adr": "Россия, Санкт-Петербург, Кожевенная линия, 40Д", "name": "Gypsy Fish", "type": "кафе", "id": "node\/6367424248", "amenity": "cafe", "x": 59.924934, "y": 30.240715 }, "geometry": { "type": "Point", "coordinates": [ 30.240715, 59.924934 ] } },
{ "type": "Feature", "properties": { "yand_adr": "Россия, Санкт-Петербург, Косая линия, 13", "name": "Якорь", "type": "кафе", "id": "node\/2814787590", "amenity": "cafe", "x": 59.928654, "y": 30.257774 }, "geometry": { "type": "Point", "coordinates": [ 30.257774, 59.928654 ] } },
{ "type": "Feature", "properties": { "yand_adr": "Россия, Санкт-Петербург, Малый проспект Васильевского острова, 22", "name": "Papa John's", "type": "кафе", "id": "node\/4771097522", "amenity": "cafe", "x": 59.945788, "y": 30.270863 }, "geometry": { "type": "Point", "coordinates": [ 30.270863, 59.945788 ] } },
{ "type": "Feature", "properties": { "yand_adr": "Россия, Санкт-Петербург, набережная Лейтенанта Шмидта, 13", "name": "Пуэр", "type": "кафе", "id": "node\/965247557", "amenity": "cafe", "x": 59.935692, "y": 30.282073 }, "geometry": { "type": "Point", "coordinates": [ 30.282073, 59.935692 ] } },
{ "type": "Feature", "properties": { "yand_adr": "Россия, Санкт-Петербург, набережная Лейтенанта Шмидта, 19", "name": "Usoff", "type": "кафе", "id": "node\/1626601402", "amenity": "cafe", "x": 59.934461, "y": 30.277762 }, "geometry": { "type": "Point", "coordinates": [ 30.277762, 59.934461 ] } },
{ "type": "Feature", "properties": { "yand_adr": "Россия, Санкт-Петербург, набережная Лейтенанта Шмидта, 29", "name": "Трапеза", "type": "кафе", "id": "node\/3167392644", "amenity": "cafe", "x": 59.933059, "y": 30.274851 }, "geometry": { "type": "Point", "coordinates": [ 30.274851, 59.933059 ] } },
{ "type": "Feature", "properties": { "yand_adr": "Россия, Санкт-Петербург, набережная Макарова, 28", "name": "Радости", "type": "кафе", "id": "node\/4144230668", "amenity": "cafe", "x": 59.948374, "y": 30.280897 }, "geometry": { "type": "Point", "coordinates": [ 30.280897, 59.948374 ] } },
{ "type": "Feature", "properties": { "yand_adr": "Россия, Санкт-Петербург, сад Василеостровец", "name": "Васин Сад", "type": "кафе", "id": "way\/65623743", "amenity": "cafe", "x": 59.934389, "y": 30.257037 }, "geometry": { "type": "Point", "coordinates": [ 30.257037, 59.934389 ] } },
{ "type": "Feature", "properties": { "yand_adr": "Россия, Санкт-Петербург, Среднегаванский проспект, 10", "name": "Клио", "type": "кафе", "id": "node\/799905326", "amenity": "cafe", "x": 59.930444, "y": 30.244919 }, "geometry": { "type": "Point", "coordinates": [ 30.244919, 59.930444 ] } },
{ "type": "Feature", "properties": { "yand_adr": "Россия, Санкт-Петербург, Средний проспект Васильевского острова, 1", "name": "Самарканд", "type": "кафе", "id": "node\/5652283518", "amenity": "cafe", "x": 59.946315, "y": 30.288703 }, "geometry": { "type": "Point", "coordinates": [ 30.288703, 59.946315 ] } },
{ "type": "Feature", "properties": { "yand_adr": "Россия, Санкт-Петербург, Средний проспект Васильевского острова, 34", "name": "Пирог", "type": "кафе", "id": "node\/952046759", "amenity": "cafe", "x": 59.942444, "y": 30.27698 }, "geometry": { "type": "Point", "coordinates": [ 30.27698, 59.942444 ] } },
{ "type": "Feature", "properties": { "yand_adr": "Россия, Санкт-Петербург, Средний проспект Васильевского острова, 42\/25", "name": "Под гвоздём", "type": "кафе", "id": "node\/953835611", "amenity": "cafe", "x": 59.941628, "y": 30.27424 }, "geometry": { "type": "Point", "coordinates": [ 30.27424, 59.941628 ] } },
{ "type": "Feature", "properties": { "yand_adr": "Россия, Санкт-Петербург, Средний проспект Васильевского острова, 61", "name": "Котлетное бюро", "type": "кафе", "id": "node\/4207471005", "amenity": "cafe", "x": 59.939956, "y": 30.266946 }, "geometry": { "type": "Point", "coordinates": [ 30.266946, 59.939956 ] } },
{ "type": "Feature", "properties": { "yand_adr": "Россия, Санкт-Петербург, Средний проспект Васильевского острова, 61", "name": "SPARTA GYROS", "type": "кафе", "id": "node\/3718495130", "amenity": "cafe", "x": 59.939956, "y": 30.266946 }, "geometry": { "type": "Point", "coordinates": [ 30.266946, 59.939956 ] } },
{ "type": "Feature", "properties": { "yand_adr": "Россия, Санкт-Петербург, Средний проспект Васильевского острова, 67", "name": "Алиса", "type": "кафе", "id": "node\/3906102879", "amenity": "cafe", "x": 59.939433, "y": 30.265266 }, "geometry": { "type": "Point", "coordinates": [ 30.265266, 59.939433 ] } },
{ "type": "Feature", "properties": { "yand_adr": "Россия, Санкт-Петербург, улица Беринга, 32к3", "name": "Беседа", "type": "кафе", "id": "node\/6588052485", "amenity": "cafe", "x": 59.94435, "y": 30.233187 }, "geometry": { "type": "Point", "coordinates": [ 30.233187, 59.94435 ] } },
{ "type": "Feature", "properties": { "yand_adr": "Россия, Санкт-Петербург, улица Кораблестроителей, 30", "name": "Леопольд", "type": "кафе", "id": "node\/825152819", "amenity": "cafe", "x": 59.952493, "y": 30.212346 }, "geometry": { "type": "Point", "coordinates": [ 30.212346, 59.952493 ] } },
{ "type": "Feature", "properties": { "yand_adr": "Россия, Санкт-Петербург, улица Одоевского, 29", "name": "Метро", "type": "кафе", "id": "node\/4296397712", "amenity": "cafe", "x": 59.948235, "y": 30.234876 }, "geometry": { "type": "Point", "coordinates": [ 30.234876, 59.948235 ] } },
{ "type": "Feature", "properties": { "yand_adr": "Россия, Санкт-Петербург, улица Репина, 35", "name": "Great Meal", "type": "кафе", "id": "node\/5935286886", "amenity": "cafe", "x": 59.943539, "y": 30.286718 }, "geometry": { "type": "Point", "coordinates": [ 30.286718, 59.943539 ] } },
{ "type": "Feature", "properties": { "yand_adr": "Россия, Санкт-Петербург, Уральская улица, 10к1", "name": "Presso", "type": "кафе", "id": "node\/2271917023", "amenity": "cafe", "x": 59.952804, "y": 30.257603 }, "geometry": { "type": "Point", "coordinates": [ 30.257603, 59.952804 ] } },
{ "type": "Feature", "properties": { "yand_adr": "Россия, Санкт-Петербург, Уральская улица, 2", "name": "Смола", "type": "кафе", "id": "node\/7041044485", "amenity": "cafe", "x": 59.949055, "y": 30.26744 }, "geometry": { "type": "Point", "coordinates": [ 30.26744, 59.949055 ] } },
{ "type": "Feature", "properties": { "yand_adr": "Россия, Санкт-Петербург, Шкиперский проток, 14к1", "name": "Шкипер", "type": "кафе", "id": "node\/4073538989", "amenity": "cafe", "x": 59.93268, "y": 30.225066 }, "geometry": { "type": "Point", "coordinates": [ 30.225066, 59.93268 ] } },
{ "type": "Feature", "properties": { "yand_adr": "Россия, Санкт-Петербург, 11-я линия Васильевского острова, 34\/47", "name": "Бистро Василеостровское", "type": "столовая", "id": "node\/1585571406", "amenity": "cafe", "x": 59.941844, "y": 30.272965 }, "geometry": { "type": "Point", "coordinates": [ 30.272965, 59.941844 ] } },
{ "type": "Feature", "properties": { "yand_adr": "Россия, Санкт-Петербург, 12-я линия Васильевского острова, 13", "name": "Ложка - Столовая", "type": "столовая", "id": "node\/3872641282", "amenity": "fast_food", "x": 59.938482, "y": 30.274267 }, "geometry": { "type": "Point", "coordinates": [ 30.274267, 59.938482 ] } },
{ "type": "Feature", "properties": { "yand_adr": "Россия, Санкт-Петербург, 13-я линия Васильевского острова, 14", "name": "Столовая", "type": "столовая", "id": "node\/3077250630", "amenity": "cafe", "x": 59.936106, "y": 30.276118 }, "geometry": { "type": "Point", "coordinates": [ 30.276118, 59.936106 ] } },
{ "type": "Feature", "properties": { "yand_adr": "Россия, Санкт-Петербург, 17-я линия Васильевского острова, 22", "name": "Питание+", "type": "столовая", "id": "node\/4622249910", "amenity": "fast_food", "x": 59.938284, "y": 30.266757 }, "geometry": { "type": "Point", "coordinates": [ 30.266757, 59.938284 ] } },
{ "type": "Feature", "properties": { "yand_adr": "Россия, Санкт-Петербург, 26-я линия Васильевского острова, 5к4", "name": "Вкусняшка", "type": "столовая", "id": "node\/5905669285", "amenity": "cafe", "x": 59.927775, "y": 30.261376 }, "geometry": { "type": "Point", "coordinates": [ 30.261376, 59.927775 ] } },
{ "type": "Feature", "properties": { "yand_adr": "Россия, Санкт-Петербург, 4-я линия Васильевского острова, 35-37", "name": "Столовая ложка", "type": "столовая", "id": "node\/4589104851", "amenity": "cafe", "x": 59.94513, "y": 30.280079 }, "geometry": { "type": "Point", "coordinates": [ 30.280079, 59.94513 ] } },
{ "type": "Feature", "properties": { "yand_adr": "Россия, Санкт-Петербург, 7-я линия Васильевского острова, 34", "name": "Marketplace", "type": "столовая", "id": "node\/951472004", "amenity": "cafe", "x": 59.940993, "y": 30.280097 }, "geometry": { "type": "Point", "coordinates": [ 30.280097, 59.940993 ] } },
{ "type": "Feature", "properties": { "yand_adr": "Россия, Санкт-Петербург, Биржевая линия, 6", "name": "Студенческая столовая", "type": "столовая", "id": "node\/1938745155", "amenity": "cafe", "x": 59.942994, "y": 30.296563 }, "geometry": { "type": "Point", "coordinates": [ 30.296563, 59.942994 ] } },
{ "type": "Feature", "properties": { "yand_adr": "Россия, Санкт-Петербург, Большой проспект Васильевского острова, 25", "name": "Кафе-бистро", "type": "столовая", "id": "node\/951709290", "amenity": "fast_food", "x": 59.939347, "y": 30.281705 }, "geometry": { "type": "Point", "coordinates": [ 30.281705, 59.939347 ] } },
{ "type": "Feature", "properties": { "yand_adr": "Россия, Санкт-Петербург, Большой проспект Васильевского острова, 5", "name": "\"Китайский ресторан\"", "type": "столовая", "id": "node\/7037612552", "amenity": "fast_food", "x": 59.941362, "y": 30.288362 }, "geometry": { "type": "Point", "coordinates": [ 30.288362, 59.941362 ] } },
{ "type": "Feature", "properties": { "yand_adr": "Россия, Санкт-Петербург, Косая линия, 24\/25", "name": "Бистро", "type": "столовая", "id": "node\/2814784417", "amenity": "fast_food", "x": 59.922345, "y": 30.252537 }, "geometry": { "type": "Point", "coordinates": [ 30.252537, 59.922345 ] } },
{ "type": "Feature", "properties": { "yand_adr": "Россия, Санкт-Петербург, набережная Макарова, 10", "name": "Экспресс бистро", "type": "столовая", "id": "node\/4361823989", "amenity": "fast_food", "x": 59.945472, "y": 30.293761 }, "geometry": { "type": "Point", "coordinates": [ 30.293761, 59.945472 ] } },
{ "type": "Feature", "properties": { "yand_adr": "Россия, Санкт-Петербург, Уральская улица, 4", "name": "Столовая", "type": "столовая", "id": "node\/2260552479", "amenity": "fast_food", "x": 59.950335, "y": 30.266048 }, "geometry": { "type": "Point", "coordinates": [ 30.266048, 59.950335 ] } }
]
}
